{"type":"FeatureCollection", "features":[
{"type":"Feature","geometry":{"type":"Point","coordinates":[29.329127999242417,-1.7294819996417914]},"properties":{"OBJECTID_1":1,"OBJECTID":2819,"Prov_Kin":"Iburengerazuba","Prov_Eng":"Western Province","District":"Rubavu","Sector":"Nyundo","Cell":"Kavomo","Village":"Shonyi","Name":"Kamugarura","School_ID":"331004","Highest_Ed":"Primary","Coordinate":"Yes","Latitude":-1.729482,"Longitude":29.329128}},
{"type":"Feature","geometry":{"type":"Point","coordinates":[29.36373500056976,-1.740867999871341]},"properties":{"OBJECTID_1":2,"OBJECTID":2820,"Prov_Kin":"Iburengerazuba","Prov_Eng":"Western Province","District":"Rubavu","Sector":"Nyundo","Cell":"Kigarama","Village":"Mwari","Name":"Kigarama","School_ID":"331007","Highest_Ed":"Primary","Coordinate":"Yes","Latitude":-1.740868,"Longitude":29.363735}},
{"type":"Feature","geometry":{"type":"Point","coordinates":[29.34014499993458,-1.7238920003715066]},"properties":{"OBJECTID_1":3,"OBJECTID":2821,"Prov_Kin":"Iburengerazuba","Prov_Eng":"Western Province","District":"Rubavu","Sector":"Nyundo","Cell":"Mukondo","Village":"Busogo","Name":"Mukondo","School_ID":"331010","Highest_Ed":"Secondary A' Level","Coordinate":"Yes","Latitude":-1.723892,"Longitude":29.340145}},
{"type":"Feature","geometry":{"type":"Point","coordinates":[29.327582000466464,-1.7117470000698631]},"properties":{"OBJECTID_1":4,"OBJECTID":2822,"Prov_Kin":"Iburengerazuba","Prov_Eng":"Western Province","District":"Rubavu","Sector":"Nyundo","Cell":"Nyundo","Village":"Kiyove","Name":"Kayanza Amroise","School_ID":"331006","Highest_Ed":"Primary","Coordinate":"Yes","Latitude":-1.711747,"Longitude":29.327582}},
{"type":"Feature","geometry":{"type":"Point","coordinates":[29.328494999758107,-1.7048170001154404]},"properties":{"OBJECTID_1":5,"OBJECTID":2823,"Prov_Kin":"Iburengerazuba","Prov_Eng":"Western Province","District":"Rubavu","Sector":"Nyundo","Cell":"Nyundo","Village":"Kiyove","Name":"Gsnda Nyundo","School_ID":"331003","Highest_Ed":"Secondary A' Level","Coordinate":"Yes","Latitude":-1.704817,"Longitude":29.328495}},
{"type":"Feature","geometry":{"type":"Point","coordinates":[29.330146999970736,-1.7055750001400156]},"properties":{"OBJECTID_1":6,"OBJECTID":2824,"Prov_Kin":"Iburengerazuba","Prov_Eng":"Western Province","District":"Rubavu","Sector":"Nyundo","Cell":"Nyundo","Village":"Kayanza","Name":"Petit Seminaire Saint Pie X De Nyundo","School_ID":"331012","Highest_Ed":"Secondary A' Level","Coordinate":"Yes","Latitude":-1.705575,"Longitude":29.330147}},
{"type":"Feature","geometry":{"type":"Point","coordinates":[29.301800000054357,-1.6934699999393388]},"properties":{"OBJECTID_1":7,"OBJECTID":2825,"Prov_Kin":"Iburengerazuba","Prov_Eng":"Western Province","District":"Rubavu","Sector":"Nyundo","Cell":"Terimbere","Village":"Rambura","Name":"Rusamaza","School_ID":"331013","Highest_Ed":"Primary","Coordinate":"Yes","Latitude":-1.69347,"Longitude":29.3018}},
{"type":"Feature","geometry":{"type":"Point","coordinates":[29.325020000205313,-1.7028100001309667]},"properties":{"OBJECTID_1":8,"OBJECTID":2826,"Prov_Kin":"Iburengerazuba","Prov_Eng":"Western Province","District":"Rubavu","Sector":"Nyundo","Cell":"Terimbere","Village":"Hanika","Name":"Sanzare","School_ID":"331014","Highest_Ed":"Secondary O' Level","Coordinate":"Yes","Latitude":-1.70281,"Longitude":29.32502}},
{"type":"Feature","geometry":{"type":"Point","coordinates":[29.323390000138204,-1.702185000127315]},"properties":{"OBJECTID_1":9,"OBJECTID":2827,"Prov_Kin":"Iburengerazuba","Prov_Eng":"Western Province","District":"Rubavu","Sector":"Nyundo","Cell":"Terimbere","Village":"Hanika","Name":"Ecole D'Arts Nyundo","School_ID":"331002","Highest_Ed":"Secondary A' Level","Coordinate":"Yes","Latitude":-1.702185,"Longitude":29.32339}}
]}
